{
  "churches_details": [
    {
      "name": "Igreja Paroquial de Aldoar",
      "phone": "226100113",
      "weekdays": "19:00 (3ª a 6ª feira)",
      "Saturday_morning": "",
      "Saturday_late": "19",
      "Dominical": "10.00, 12.00, 19.00(inverno)",
      "address": "R. Prof. Melo Adrião 77, 4100-333 Porto",
      "latitude": "41.170141",
      "longitude": "-8.6698765"
    },
    {
      "name": "Capela das Almas",
      "phone": "222005765",
      "weekdays": "8:00, 9:00, 10:00, 12:00, 16:00, 17:00",
      "Saturday_morning": " 8.00, 9.00, 10.00, 12.00",
      "Saturday_late": "18.30",
      "Dominical": "8:00, 9:00, 10:00, 12:00, 18.30",
      "address": "R. de Santa Catarina 428, 4000-124 Porto",
      "latitude": "41.1498861",
      "longitude": "-8.6082303"
    },
    {
      "name": "Paróquia do Amial",
      "phone": "228348850",
      "weekdays": "9:00, 19:00",
      "Saturday_morning": "9:00",
      "Saturday_late": "19:00",
      "Dominical": "9:30, 11:30, 19:00",
      "address": "R. Nova do Tronco, 4200-339 Porto",
      "latitude": "41.1821475",
      "longitude": "-8.6187982"
    },
    {
      "name": "Paróquia Nossa Senhora da Areosa",
      "phone": "225499333",
      "weekdays": "8:00, 19:30",
      "Saturday_morning": "8:00",
      "Saturday_late": "19:00",
      "Dominical": "8:00, 10:00(qdo há catequese), 12:00, 19:00",
      "address": "Rua da Igreja da Areosa 91, 4200-323 Porto",
      "latitude": "41.1758045",
      "longitude": "-8.5900306"
    },
    {
      "name": "Igreja Paroquial de Santo António das Antas",
      "phone": "225021006",
      "weekdays": "10:00, 19:15",
      "Saturday_morning": "10:00",
      "Saturday_late": "19:00",
      "Dominical": "9:45 (exc. de julho a setembro que é as 9:30), 11:00, 12:15, 19:00",
      "address": "R. Santo António das Antas 15, 4200-483 Porto",
      "latitude": "41.1642926",
      "longitude": "-8.5924474"
    },
    {
      "name": "Igreja Paroquial do Bonfim",
      "phone": "964931404",
      "weekdays": "19:00",
      "Saturday_morning": "",
      "Saturday_late": "19:00",
      "Dominical": "9:00, 11:00, 19:00",
      "address": "R. do Monte do Bonfim 72, 4300-350 Porto",
      "latitude": "41.1518591",
      "longitude": "-8.5934409"
    },
    {
      "name": "Igreja de Santa Maria de Campanhã",
      "phone": "225370340 935370341",
      "weekdays": "10:00(à 4ªf)",
      "Saturday_morning": "",
      "Saturday_late": "10:00",
      "Dominical": "10:3",
      "address": "R. do Falcão 109, 4300-181 Porto",
      "latitude": "41.1547325",
      "longitude": "-8.5742538"
    },
    {
      "name": "Igreja de São Pedro de Azevedo",
      "phone": "225370340 935370341 935370340",
      "weekdays": "18:00(à 5ªf)",
      "Saturday_morning": "",
      "Saturday_late": "17:30",
      "address": "Largo de São Pedro, 4300-473 Porto",
      "latitude": "41.1490239",
      "longitude": "-8.5980478"
    },
    {
      "name": "Capela do Forte",
      "phone": "225370340 935370341 935370340",
      "weekdays": "",
      "Saturday_morning": "",
      "Saturday_late": "",
      "Dominical": "9:30",
      "address": "R. Outeiro do Tine 22, Porto",
      "latitude": "41.1515113",
      "longitude": "-8.5925919"
    },
    {
      "name": "Capela de S.Roque (S.Roque da lameira-Campanhã)",
      "phone": "225367418 935370332",
      "weekdays": "19:00",
      "Saturday_morning": "",
      "Saturday_late": "19:00",
      "Dominical": "9:30",
      "address": "R. São Roque da Lameira 1285 1337, Porto",
      "latitude": "41.1600856",
      "longitude": "-8.581233"
    },
    {
      "name": "Cerco, Igreja Sra. do Calvário (em frente à escola do Cerco do Porto)",
      "phone": "225107591 935193342 225376959",
      "weekdays": "17:00 (5ªf)",
      "Saturday_morning": "",
      "Saturday_late": "16:00",
      "Dominical": "11:30",
      "address": "R. do Cerco do Porto 4300 4300, Porto",
      "latitude": "41.1606729",
      "longitude": "-8.5705629"
    },
    {
      "name": "Carmelitas Descalços (FOZ)",
      "phone": "226181683",
      "weekdays": "12:00, 19:00",
      "Saturday_morning": "12:00",
      "Saturday_late": "19:00",
      "Dominical": "10:00, 12:00 (Inverno), 19:00",
      "address": "R. de Gondarém 274, 4150-376 Porto",
      "latitude": "41.155768",
      "longitude": "-8.6817442"
    },
    {
      "name": "Carmelitas, Igreja",
      "phone": "222050279",
      "weekdays": "15:3",
      "Saturday_morning": "",
      "Saturday_late": "15:30",
      "Dominical": "11:00, 15:30",
      "address": "Praça de Gomes Teixeira 5, 4050-456 Porto",
      "latitude": "41.147336",
      "longitude": "-8.6190199"
    },
    {
      "name": "Carmo, Igreja",
      "phone": "222078401",
      "weekdays": "9:00, 18:30",
      "Saturday_morning": "9:00",
      "Saturday_late": "18:30",
      "Dominical": "9:00",
      "address": "R. do Carmo, 4050-164 Porto",
      "latitude": "41.1473563",
      "longitude": "-8.6188478"
    },
    {
      "name": "Carvalhido, Igreja Paroquial",
      "phone": "228302045",
      "weekdays": "17:00",
      "Saturday_morning": "",
      "Saturday_late": "18:00",
      "Dominical": "8:30, 10:00, 11:30",
      "address": "R. Dom António Meireles 140, 4250-054 Porto",
      "latitude": "41.1660128",
      "longitude": "-8.6283633"
    },
    {
      "name": "Casa Saúde Boavista",
      "phone": "228339000",
      "weekdays": "7:30",
      "Saturday_morning": "7:30",
      "Saturday_late": "",
      "Dominical": "10:00",
      "address": "R. de Domingos Machado 186, 4250-201 Porto",
      "latitude": "41.1653379",
      "longitude": "-8.6331528"
    },
    {
      "name": "Cedofeita, Igreja",
      "phone": "222000635",
      "weekdays": "19:00",
      "Saturday_morning": "",
      "Saturday_late": "15:30",
      "Dominical": "10:00 12:00, 19:00(exc:agosto), 21:30",
      "address": "R. de Aníbal Cunha 193, 4050-049 Porto",
      "latitude": "41.1551711",
      "longitude": "-8.6238488"
    },
    {
      "name": "Clérigos",
      "phone": "220145489",
      "weekdays": "",
      "Saturday_morning": "",
      "Saturday_late": "17:00(em Inglês)",
      "Dominical": "21:30",
      "address": "R. de São Filipe de Nery, 4050-546 Porto",
      "latitude": "41.1457899",
      "longitude": "-8.6158513"
    },
    {
      "name": "Colégio Luso-Francês",
      "phone": "228347150",
      "weekdays": "18:00",
      "Saturday_morning": "",
      "Saturday_late": "",
      "Dominical": "8:30",
      "address": "Rua do Amial 442, 4200-055 Porto",
      "latitude": "41.176801",
      "longitude": "-8.6165598"
    },
    {
      "name": "Igreja Paroquial de Nossa Senhora da Conceição",
      "phone": "225072190",
      "weekdays": "10:00(3ª a 6ª), 19:15 (3ª a 6ª)",
      "Saturday_morning": "10:00",
      "Saturday_late": "19:00",
      "Dominical": "8:30, 10:00, 12:00, 19:00",
      "address": "Praça do Marquês de Pombal 111, 4000-307 Porto",
      "latitude": "41.1613696",
      "longitude": "-8.6081579"
    },
    {
      "name": "Igreja de Santo António dos Congregados",
      "phone": "222002948",
      "weekdays": "8:00, 10:00, 11:00(exc: sexta), 18:00",
      "Saturday_morning": "9:00, 10:00, 11:00",
      "Saturday_late": "18:00",
      "Dominical": "9:00, 10:00, 11:00, 18:00",
      "address": "R. de Sá da Bandeira 11, 4000-433 Porto",
      "latitude": "41.1461878",
      "longitude": "-8.6133138"
    },
    {
      "name": "Igreja Paroquial de Cristo Rei",
      "phone": "226165760",
      "weekdays": "8:00, 12:00, 19:00",
      "Saturday_morning": "8:00",
      "Saturday_late": "12:00, 19:00",
      "Dominical": "9:00, 10:30, 12:00, 13:15 (Inverno) 19:00",
      "address": "Praça Dom Afonso v 86, 4150-024 Porto",
      "latitude": "41.1594082",
      "longitude": "-8.6654766"
    },
    {
      "name": "Igreja da Lapa",
      "phone": "222001369",
      "weekdays": "9:00(3ª a 6ª feira), 11:00(3ª a 6ª feira), 19:15(3ª a 6ª feira)(exc: agosto)",
      "Saturday_morning": "9:00, 11:00",
      "Saturday_late": "19:00",
      "Dominical": "9:00, 10:30, 12:00, 19:00",
      "address": "Largo da Lapa 1, 4050-069 Porto",
      "latitude": "41.1571626",
      "longitude": "-8.6145709"
    },
    {
      "name": "Igreja de São Martinho de Lordelo",
      "phone": "226170671",
      "weekdays": "8:30(2ª,4ª e 6ªfeira)(verão- de julho a outubro), 18:45(2ª,4ª e 6ªfeira)(inverno-outubro a julho)",
      "Saturday_morning": "",
      "Saturday_late": "18:30",
      "Dominical": "10:30, 18:30",
      "address": "R. das Condominhas 739, 4150-221 Porto",
      "latitude": "41.1534884",
      "longitude": "-8.6530878"
    },
    {
      "name": "Igreja Paroquial de Massarelos",
      "phone": "220185665",
      "weekdays": "19:00 (3ª feira)(verão), 18:00(3ªfeira )(inverno)",
      "Saturday_morning": "",
      "Saturday_late": "18:00",
      "Dominical": "",
      "address": "Largo Adro 9, 4050-015 Porto",
      "latitude": "41.1458961",
      "longitude": "-8.6330883"
    },
    {
      "name": "Igreja Paroquial de São Pedro de Miragaia",
      "phone": "222007618",
      "weekdays": "19:00 (5ª feira)",
      "Saturday_morning": "",
      "Saturday_late": "",
      "Dominical": "9:45",
      "address": "R. São Pedro de Miragaia, 4050-431 Porto",
      "latitude": "41.1429268",
      "longitude": "-8.6223077"
    },
    {
      "name": "Capela da Irmã Maria do Divino Coração",
      "phone": "228303673",
      "weekdays": "9:30 ( quinta-feira)",
      "Saturday_morning": "",
      "Saturday_late": "17:00",
      "Dominical": "",
      "address": "R. de Vale Formoso 417, 4200-513 Porto",
      "latitude": "41.1688563",
      "longitude": "-8.6152396"
    },
    {
      "name": "Misericórdia",
      "phone": "222000941",
      "weekdays": "9:30 (3ª a 6ª feira)",
      "Saturday_morning": "9:30",
      "Saturday_late": "",
      "Dominical": "10:00",
      "address": "R. das Flores 15, 4050-542 Porto",
      "latitude": "41.1436111",
      "longitude": "-8.6147222"
    },
    {
      "name": "Nª Sr.ª de Fátima",
      "phone": "226061290",
      "weekdays": "8:00 (exc:agosto), 12:15",
      "Saturday_morning": "",
      "Saturday_late": "12:15",
      "Dominical": "10:00(exc:agosto), 12:15",
      "address": "R. de Nossa Sra. de Fátima, 4050-425 Porto",
      "latitude": "41.1601425",
      "longitude": "-8.6240785"
    },
    {
      "name": "Nª Sr.ª dos Anjos (R. dos Bragas)",
      "phone": "223392170",
      "weekdays": "8:00, 19:00",
      "Saturday_morning": " 8:00",
      "Saturday_late": "19",
      "Dominical": "10:30, 19:00",
      "address": "Rua dos Bragas 321, Porto",
      "latitude": "41.1523745",
      "longitude": "-8.61786"
    },
    {
      "name": "Igreja Paroquial de Nevogilde",
      "phone": "226182687",
      "weekdays": "9:30( terça a sexta)",
      "Saturday_morning": "",
      "Saturday_late": "16:30",
      "Dominical": "9:00, 11:00",
      "address": "Largo de Nevogilde 125-154, Porto",
      "latitude": "41.1641966",
      "longitude": "-8.6795294"
    },
    {
      "name": "Paróquia De São Veríssimo De Paranhos",
      "phone": "225020729",
      "weekdays": "8:30 (terça a sexta só em Novembro), 19:00",
      "Saturday_morning": "",
      "Saturday_late": "19:00",
      "Dominical": "8:30, 11:00(cripta da I: :nova no inverno e I Matriz-Verão), 19:00",
      "address": "Largo Igreja de Paranhos 53, 4200-325 Porto",
      "latitude": "41.1738681",
      "longitude": "-8.6069513"
    },
    {
      "name": "Igreja de Nossa Senhora da Ajuda",
      "phone": "226183409",
      "weekdays": "19:15 ( 5ªf)",
      "Saturday_morning": "",
      "Saturday_late": "16:30",
      "Dominical": "11:15, 19:00",
      "address": "R. de Bartolomeu Velho Nº 501, 4150-124 Porto",
      "latitude": "41.1530007",
      "longitude": "-8.6788892"
    },
    {
      "name": "Pasteleira (Capela da ajuda) Em frente ao fluvial",
      "phone": "226104708",
      "weekdays": "19:15 (3ªf)",
      "Saturday_morning": "",
      "Saturday_late": "",
      "Dominical": "9:00",
      "address": "R. da Sra da Ajuda, 95",
      "latitude": "41.1486555",
      "longitude": "-8.6555008"
    },
    {
      "name": "Igreja de Nossa Senhora do Perpétuo Socorro",
      "phone": "225363751",
      "weekdays": "",
      "Saturday_morning": "",
      "Saturday_late": "",
      "Dominical": "11:00",
      "address": "R. da Firmeza 163, 4000-099 Porto",
      "latitude": "41.1506843",
      "longitude": "-8.6034466"
    },
    {
      "name": "Ramalde",
      "phone": "226175741",
      "weekdays": "19:30",
      "Saturday_morning": "11:30",
      "Saturday_late": "16:30, 19:00",
      "Dominical": "10:00, 12:00, 18:30",
      "address": "R. da Igreja de Ramalde, 55",
      "latitude": "41.1687046",
      "longitude": "-8.6502383"
    },
    {
      "name": "Igreja do Santíssimo Sacramento",
      "phone": "226066008",
      "weekdays": "9:00, 19:00",
      "Saturday_morning": "9:00",
      "Saturday_late": "19:00",
      "Dominical": "9:00, 10:30, 12:00, 19:00",
      "address": "R. de Guerra Junqueiro 600, Porto",
      "latitude": "41.1581993",
      "longitude": "-8.6373137"
    },
    {
      "name": "Igreja Paroquial de Santo Ildefonso",
      "phone": "222004366",
      "weekdays": "18:00 (3ª e 5ª)",
      "Saturday_morning": "",
      "Saturday_late": "19:00",
      "Dominical": "10:00",
      "address": "R. de Santo Ildefonso 11, 4000-542 Porto",
      "latitude": "41.1462151",
      "longitude": "-8.6091711"
    },
    {
      "name": "Capela de São Crispim",
      "phone": "225368927 917906876",
      "weekdays": "18:00 (3ª a 6ª)",
      "Saturday_morning": "",
      "Saturday_late": "18:00",
      "Dominical": "11:00",
      "address": "Rua de Santos Pousada 1087, 4000-075 Porto",
      "latitude": "41.1585567",
      "longitude": "-8.6014866"
    },
    {
      "name": "Igreja de São João Baptista da Foz do Douro",
      "phone": "226180015",
      "weekdays": "18:30 (3ª a 6ª feira)",
      "Saturday_morning": "",
      "Saturday_late": "19:00",
      "Dominical": "11:00, 19:00",
      "address": "Largo da Igreja 107, 4150-400 Porto",
      "latitude": "41.1488809",
      "longitude": "-8.6712156"
    },
    {
      "name": "Igreja Paroquial de São Nicolau",
      "phone": "222004486 962964082",
      "weekdays": "19:00 (4ª e 6ª feira)",
      "Saturday_morning": "",
      "Saturday_late": "19:00",
      "Dominical": "9:15",
      "address": "Rua do Infante D. Henrique 93, 4050-298 Porto",
      "latitude": "41.1406144",
      "longitude": "-8.6179026"
    },
    {
      "name": "Sé do Porto",
      "phone": "222005338",
      "weekdays": "11:00",
      "Saturday_morning": "",
      "Saturday_late": "",
      "Dominical": "11:00",
      "address": "Terreiro da Sé, 4050-573 Porto",
      "latitude": "41.1428531",
      "longitude": "-8.6136914"
    },
    {
      "name": "Igreja do Foco",
      "phone": "226002691",
      "weekdays": "12:30 (exc: de 15 de julho até 15 setembro), 19:00",
      "Saturday_morning": "",
      "Saturday_late": "16:00, 19:00",
      "Dominical": "10:45, 12:00, 13:00, 19:00",
      "address": "R. de Azevedo Coutinho 141, 4100-366 Porto",
      "latitude": "41.1619616",
      "longitude": "-8.6495628"
    },
    {
      "name": "Igreja Paroquial da Senhora do Porto",
      "phone": "228311448 969220760",
      "weekdays": "8:30",
      "Saturday_morning": "",
      "Saturday_late": "18:00",
      "Dominical": "10:00, 12:00",
      "address": "R. Santa Luzia 41, 4250-450 Porto",
      "latitude": "41.1756645",
      "longitude": "-8.635506"
    },
    {
      "name": "Igreja de São Paulo do Viso",
      "phone": "228311448 969220760",
      "weekdays": "18:30 (5feira)",
      "Saturday_morning": "",
      "Saturday_late": "19:00",
      "Dominical": "10:00",
      "address": "R. Dom João de Azevedo 165, Porto",
      "latitude": "41.1804035",
      "longitude": "-8.6500846"
    },
    {
      "name": "Capela de Nossa Senhora da Luz",
      "phone": "226180669 914072305",
      "weekdays": "",
      "Saturday_morning": "",
      "Saturday_late": "19:15",
      "Dominical": "12:00, 19:15",
      "address": "R. de Gondarém 540, 4150-378 Porto",
      "latitude": "41.1577232",
      "longitude": "-8.6834575"
    },
    {
      "name": "Igreja de Nossa Senhora do Terço e Caridade",
      "phone": "222053082",
      "weekdays": "",
      "Saturday_morning": "",
      "Saturday_late": "",
      "Dominical": "10:00",
      "address": "R. de Cimo de Vila 36 C, 4000-171 Porto",
      "latitude": "41.1447041",
      "longitude": "-8.6108295"
    },
    {
      "name": "Igreja da Santíssima Trindade",
      "phone": "222075989",
      "weekdays": "10:00, 16:00",
      "Saturday_morning": "",
      "Saturday_late": "15:30, 17:00",
      "Dominical": "10:00, 11:00, 17:00",
      "address": "Rua da Trindade 115, 4000-220 Porto",
      "latitude": "41.1509071",
      "longitude": "-8.6130767"
    },
    {
      "name": "Igreja de Vilar",
      "phone": "226056000",
      "weekdays": "10:00",
      "Saturday_morning": "",
      "Saturday_late": "10:00",
      "Dominical": "19:00",
      "address": "Rua de Vilar 103, 4050-626 Porto",
      "latitude": "41.1501435",
      "longitude": "-8.6305887"
    },
    {
      "name": "Igreja Paroquial de Nossa Senhora da Vitória",
      "phone": "222007182",
      "weekdays": "",
      "Saturday_morning": "",
      "Saturday_late": "16:00",
      "Dominical": "10:30",
      "address": "R. de São Bento da Vitória 2, 4050-265 Porto",
      "latitude": "41.1433674",
      "longitude": "-8.6183523"
    },
    {
      "name": "Mosteiro de São Bento da Vitória",
      "phone": "222007283",
      "weekdays": "8:30, 18:00",
      "Saturday_morning": "",
      "Saturday_late": "18:00",
      "Dominical": "11:00",
      "address": "R. de São Bento da Vitória 45, 4050-542 Porto",
      "latitude": "41.1441961",
      "longitude": "-8.6192629"
    },
    {
      "name": "Igreja Paroquial de Gulpilhares",
      "phone": "227622136",
      "weekdays": "18:30 (3ªe 5ªfeira)",
      "Saturday_morning": "",
      "Saturday_late": "19:00",
      "Dominical": "10:30",
      "address": "Largo Igreja, 4405-918 Vila Nova de Gaia",
      "latitude": "41.0764317",
      "longitude": "-8.6315978"
    },
    {
      "name": "Igreja Paroquial de Mafamude",
      "phone": "223751608",
      "weekdays": "19:00 (exc: segunda)",
      "Saturday_morning": "",
      "Saturday_late": "17:00, 19:00",
      "Dominical": "10:00, 11:30, 19,00",
      "address": "Largo São Cristovão Mafamude, 4430-224 Vila Nova de Gaia",
      "latitude": "41.1254546",
      "longitude": "-8.6054451"
    },
    {
      "name": "Igreja do Monte da Virgem",
      "phone": "227820510",
      "weekdays": "9",
      "Saturday_morning": "9:00",
      "Saturday_late": "16:30(inv:), 17:00(verão)",
      "Dominical": "9:00, 11:00, 16:30 (inv:), 17:00 (verão)",
      "address": "Rua da Confraria do Monte da Virgem, 13",
      "latitude": "41.1076077",
      "longitude": "-8.5878606"
    },
    {
      "name": "Igreja Paroquial de Oliveira do Douro",
      "phone": "227830095",
      "weekdays": "19:00",
      "Saturday_morning": "",
      "Saturday_late": "17:00(catequese), 19:00",
      "Dominical": "9:00, 11:15",
      "address": "Alameda Santa Eulália, Vila Nova de Gaia",
      "latitude": "41.1259659",
      "longitude": "-8.5790341"
    },
    {
      "name": "Igreja Paroquial de Santo Ovídio",
      "phone": "227114203",
      "weekdays": "8:00, 9:00, 19:00",
      "Saturday_morning": "8:00, 9:00",
      "Saturday_late": "19:00",
      "Dominical": "8:00, 10:00, 11:30, 19:00(inverno), 19:30(verão)",
      "address": "R. Conde Dom Pedro 125, Vila Nova de Gaia",
      "latitude": "41.1146722",
      "longitude": "-8.610514"
    },
    {
      "name": "Mosteiro de Santo Agostinho da Serra do Pilar",
      "phone": "220142425 936114551",
      "weekdays": "",
      "Saturday_morning": "",
      "Saturday_late": "",
      "Dominical": "11:00"
    },
    {
      "name": "Igreja Paroquial de Valadares",
      "phone": "227110098",
      "weekdays": "18:30",
      "Saturday_morning": "",
      "Saturday_late": "18:30",
      "Dominical": "8:00, 11:15",
      "address": "Av. António Coelho Moreira 528, 4405-564 Vila Nova de Gaia",
      "latitude": "41.0923663",
      "longitude": "-8.6353082"
    },
    {
      "name": "Igreja Paroquial do Senhor Bom Jesus de Matosinhos",
      "phone": "229397988 963384483",
      "weekdays": "9:00 (4º)e(6ª), 18:30 (3ª ,5ª e 6ª)",
      "Saturday_morning": "",
      "Saturday_late": "17:00,18:30",
      "Dominical": "8:30, 11:30,18:30",
      "address": "R. Silva Cunha 107, 4450-222 Matosinhos",
      "latitude": "41.1867346",
      "longitude": "-8.6864882"
    },
    {
      "name": "Hospital Pedro Hispano - Capelania-Piso0",
      "phone": "229391000",
      "weekdays": "13:00",
      "Saturday_morning": "",
      "Saturday_late": "",
      "Dominical": "",
      "address": "R. de Dr. Eduardo Torres, 4464-513 Sra. da Hora",
      "latitude": "41.1813896",
      "longitude": "-8.6658823"
    },
    {
      "name": "Igreja da Cruz de Pau (N.S. Fátima)",
      "phone": "229376868",
      "weekdays": "18:30(4ªf)",
      "Saturday_morning": "",
      "Saturday_late": "",
      "Dominical": "9:30",
      "address": "R. da Cruz de Pau 214, 4450-304 Matosinhos",
      "latitude": "41.1811761",
      "longitude": "-8.6745295"
    },
    {
      "name": "Paróquia de Nossa Senhora da Hora",
      "phone": "229510984",
      "weekdays": "19:00(3ª,4ª, 6ªf), 16:00(5ªf)",
      "Saturday_morning": "",
      "Saturday_late": "16:00(qdo há catequese), 19:00",
      "Dominical": "11:00, 19:00",
      "address": "R. João Mendonça s/n, 4460-334 Sra. da Hora",
      "latitude": "41.1811742",
      "longitude": "-8.6925542"
    },
    {
      "name": "Capela de Santo Amaro",
      "phone": "229380480",
      "weekdays": "9:00(4ª e 6ª), 18:30(3ª,5ª,6ª)",
      "Saturday_morning": "",
      "Saturday_late": "17:00, 18:30",
      "Dominical": "8:30,11:30",
      "address": "Av. Serpa Pinto 417, 4450-159 Matosinhos",
      "latitude": "41.1828297",
      "longitude": "-8.6956859"
    },
    {
      "name": "Paróquia de São Mamede de Perafita",
      "phone": "93273300",
      "weekdays": "19:00(4ªf), 9:00(6ªf)",
      "Saturday_morning": "",
      "Saturday_late": "16:00(catequese) 17:30",
      "Dominical": "10:15",
      "address": "Praceta Padre Ângelo Ferreira Pinto 25, 4455-469 Perafita",
      "latitude": "41.2245791",
      "longitude": "-8.6998543"
    },
    {
      "name": "Igreja Paroquial do Padrão da Légua",
      "phone": "229578663",
      "weekdays": "19:00 (3ª a 6ª feira)",
      "Saturday_morning": "",
      "Saturday_late": "19:00",
      "Dominical": "9:30, 11:30",
      "address": "Tv. Elaine Sanceau 229, 4465-298 Leça do Balio",
      "latitude": "41.1907598",
      "longitude": "-8.634155"
    },
    {
      "name": "Mosteiro de Santa Maria de Águas Santas",
      "phone": "229710152",
      "weekdays": "8:00",
      "Saturday_morning": "8:00",
      "Saturday_late": "19:00",
      "Dominical": "9:30, 11:00",
      "address": "R. Mosteiro 957, 4425-140 Águas Santas",
      "latitude": "41.2104072",
      "longitude": "-8.5797917"
    },
    {
      "name": "Igreja Paroquial de Gueifães",
      "phone": "229606742",
      "weekdays": "9:00(2ªe 4ªfeira), 19:00",
      "Saturday_morning": "",
      "Saturday_late": "19:15",
      "Dominical": "9:00, 19:00",
      "address": "R. Profa. Dona Maria Ferreira da Cruz 825, Maia",
      "latitude": "41.2170244",
      "longitude": "-8.6053661"
    },
    {
      "name": "Igreja de São Martinho de Barca",
      "phone": "229480238",
      "weekdays": "8:30 (2ª e 4ª)",
      "Saturday_morning": "",
      "Saturday_late": "18:00",
      "Dominical": "10:30",
      "address": "R. Padre Abílio Sampaio, 173, 4475-001 Barca",
      "latitude": "41.24715",
      "longitude": "-8.6136017"
    },
    {
      "name": "Igreja Paroquial Santo António Do Corim",
      "phone": "229711348",
      "weekdays": "19:00",
      "Saturday_morning": "",
      "Saturday_late": "19:00",
      "Dominical": "11:00, 19:00",
      "address": "R. Gil Vicente 80, 4435-038 Rio Tinto",
      "latitude": "41.1959601",
      "longitude": "-8.5764311"
    },
    {
      "name": "Santuário de Santa Rita de Cássia",
      "phone": "221130232",
      "weekdays": "8:30(3ª a 6ªfeira), 18:30 (2ª e 5ªfeira), (exc: julho e agosto)",
      "Saturday_morning": "8:30",
      "Saturday_late": "16:30",
      "Dominical": "7:30, 9:00, 10:30, 18:30",
      "address": "Quinta da Formiga, 4445-485 Ermesinde",
      "latitude": "41.206129",
      "longitude": "-8.5433601"
    },
    {
      "name": "Capela da Irmã Maria do Divino Coração",
      "phone": "229710558",
      "weekdays": "17:30(apenas 2ªf-confirmar sempre), 18:15( exc: segunda)",
      "Saturday_morning": "",
      "Saturday_late": "16:30",
      "Dominical": "11:30",
      "address": "R. de Vale Formoso 417, 4200-513 Porto",
      "latitude": "41.1688562",
      "longitude": "-8.6175356"
    },
    {
      "name": "Igreja Matriz de Valongo",
      "phone": "224210822 925415520 224110139",
      "weekdays": "8:00(4ªf), 19:00 (3ª,5ªe 6ª)",
      "Saturday_morning": "",
      "Saturday_late": "19:00",
      "Dominical": "8:00, 11:00",
      "address": "R. de Sousa Paupério 213, 4440-697 Valongo",
      "latitude": "41.1879715",
      "longitude": "-8.5039772"
    },
    {
      "name": "Igreja Paroquial de Campo",
      "phone": "224110139",
      "weekdays": "8:00 (2ª,4ª,5ªe 6ª)",
      "Saturday_morning": "",
      "Saturday_late": "18:00",
      "Dominical": "9:30, 11:00",
      "address": "António Vieira n.º 30 151, R. Padre Magalhães, Campo",
      "latitude": "41.1832642",
      "longitude": "-8.5491978"
    },
    {
      "name": "Capela de Nossa Senhora da Encarnação",
      "phone": "224110139",
      "weekdays": "",
      "Saturday_morning": "",
      "Saturday_late": "",
      "Dominical": "8:00",
      "address": "R. Nossa Sra. da Encarnação 256, 4440-086 Campo",
      "latitude": "41.1770231",
      "longitude": "-8.4701138"
    },
    {
      "name": "Igreja de São Brás",
      "phone": "224897461",
      "weekdays": "9:00 (3ª a 6ª)",
      "Saturday_morning": "",
      "Saturday_late": "18:00",
      "Dominical": "9:00 , 11:00",
      "address": "Largo de São Brás 159, 4435-610 Baguim do Monte",
      "latitude": "41.1833971",
      "longitude": "-8.5550636"
    },

    {
      "name": "Baguim Capela de Sto António",
      "phone": "224897461",
      "weekdays": "",
      "Saturday_morning": "",
      "Saturday_late": "",
      "Dominical": "19:00",
      "address": "Travessa da Paz 308, 4435-606 Baguim do Monte"
    },
    {
      "name": "Baguim Capela N Sra: de Fátima",
      "phone": "224897461",
      "weekdays": "",
      "Saturday_morning": "",
      "Saturday_late": "16:00",
      "Dominical": "",
      "address": "R. Mimosas 46, 4435-688 Baguim do Monte",
      "latitude": "41.1840747",
      "longitude": "-8.5302755"
    },
    {
      "name": "Igreja Matriz de Rio Tinto",
      "phone": "224890285",
      "weekdays": "19:00(exc:segunda)",
      "Saturday_morning": "",
      "Saturday_late": "17:00(catequese) 19:00",
      "Dominical": "9:15, 11:00, 19:00",
      "address": "Rua da Lourinha 33, 4435-308 Rio Tinto",
      "latitude": "41.1776993",
      "longitude": "-8.5619503"
    },
    {
      "name": "Seminário Pe Dehon",
      "phone": "224890059",
      "weekdays": "8:00 (exc:segunda)",
      "Saturday_morning": "",
      "Saturday_late": "16:00(catequese)",
      "Dominical": "10:30",
      "address": "R. Padre Dehon 101, 4435-371 Fânzeres",
      "latitude": "41.1601108",
      "longitude": "-8.5527461"
    },
    {
      "name": "Colégio MIL (Madre Isabel Larrañaga)",
      "phone": "224663090",
      "weekdays": "19:00(3ª e 5ª)",
      "Saturday_morning": "8:30",
      "Saturday_late": "",
      "Dominical": "11:30",
      "address": "R. Taralhão 585, 4420-336 Gondomar",
      "latitude": "41.1524038",
      "longitude": "-8.5352458"
    },
    {
      "name": "Externato de Santa Margarida (Quinta da Azenha)",
      "phone": "224830104",
      "weekdays": "18:00",
      "Saturday_morning": "8:30",
      "Saturday_late": "",
      "Dominical": "10:00",
      "address": "R. Manuel Ribeiro Almeida 141, S. Cosme",
      "latitude": "41.1479932",
      "longitude": "-8.544952"
    },
    {
      "name": "Capela Dos Capuchinhos Gondomar",
      "phone": "224664580",
      "weekdays": "9:00, 19:00",
      "Saturday_morning": "9:00",
      "Saturday_late": "19:00",
      "Dominical": "8:30, 10:00, 11:30 19:00",
      "address": "Av. Gen. Humberto Delgado 201, S. Cosme",
      "latitude": "41.1450773",
      "longitude": "-8.5350442"
    },
    {
      "name": "Igreja Paroquial de Canidelo",
      "phone": "227810050",
      "weekdays": "18:00 (3ª a 6ª)",
      "Saturday_morning": "",
      "Saturday_late": "19:00",
      "Dominical": "9:00, 11:15 (salão paroquial)",
      "address": "R. do Paniceiro 390, 4400-536 Canidelo",
      "latitude": "41.123602",
      "longitude": "-8.6463737"
    },
    {
      "name": "Capela de São Pedro de Lavadores",
      "phone": "227810050",
      "weekdays": "",
      "Saturday_morning": "",
      "Saturday_late": "17:30",
      "Dominical": "",
      "address": "R. Calisto 20, 4400-396 Vila Nova de Gaia",
      "latitude": "41.1320715",
      "longitude": "-8.6665103"
    },
    {
      "name": "Capela de S. Paio",
      "phone": "227810050",
      "weekdays": "16:00",
      "Saturday_morning": "",
      "Saturday_late": "17:00",
      "Dominical": "10:00",
      "address": "R. Manuel Marques Gomes 145, 4400-497 Vila Nova de Gaia",
      "latitude": "41.1402622",
      "longitude": "-8.6533725"
    },
    {
      "name": "Igreja Paroquial do Candal",
      "phone": "917936817",
      "weekdays": "19:00",
      "Saturday_morning": "",
      "Saturday_late": "19:00",
      "Dominical": "11:00, 19:00",
      "address": "R. Ten. Valadim 99, 4400-332 Vila Nova de Gaia",
      "latitude": "41.1334442",
      "longitude": "-8.6315552"
    }
  ]
}
